{
   "results" : [
      {
         "address_components" : [
            {
               "long_name" : "Florianópolis",
               "short_name" : "Florianópolis",
               "types" : [ "locality", "political" ]
            },
            {
               "long_name" : "Florianópolis",
               "short_name" : "Florianópolis",
               "types" : [ "administrative_area_level_2", "political" ]
            },
            {
               "long_name" : "Santa Catarina",
               "short_name" : "SC",
               "types" : [ "administrative_area_level_1", "political" ]
            },
            {
               "long_name" : "Brasil",
               "short_name" : "BR",
               "types" : [ "country", "political" ]
            }
         ],
         "formatted_address" : "Florianópolis, SC, Brasil",
         "geometry" : {
            "bounds" : {
               "northeast" : {
                  "lat" : -27.3816342,
                  "lng" : -48.358867
               },
               "southwest" : {
                  "lat" : -27.8390577,
                  "lng" : -48.6100064
               }
            },
            "location" : {
               "lat" : -27.5953778,
               "lng" : -48.5480499
            },
            "location_type" : "APPROXIMATE",
            "viewport" : {
               "northeast" : {
                  "lat" : -27.3816342,
                  "lng" : -48.3591551
               },
               "southwest" : {
                  "lat" : -27.8389633,
                  "lng" : -48.6100064
               }
            }
         },
         "place_id" : "ChIJ1zLGsk45J5URRscEagtVvIE",
         "radius" : 40;
         "types" : [ "locality", "political" ]
      }

      ,
      {
         "address_components" : [
            {
               "long_name" : "Belo Horizonte",
               "short_name" : "Belo Horizonte",
               "types" : [ "administrative_area_level_2", "political" ]
            },
            {
               "long_name" : "Minas Gerais",
               "short_name" : "MG",
               "types" : [ "administrative_area_level_1", "political" ]
            },
            {
               "long_name" : "Brasil",
               "short_name" : "BR",
               "types" : [ "country", "political" ]
            }
         ],
         "formatted_address" : "Belo Horizonte - MG, Brasil",
         "geometry" : {
            "bounds" : {
               "northeast" : {
                  "lat" : -19.7760434,
                  "lng" : -43.8573101
               },
               "southwest" : {
                  "lat" : -20.0596992,
                  "lng" : -44.0633132
               }
            },
            "location" : {
               "lat" : -19.9245018,
               "lng" : -43.93523760000001
            },
            "location_type" : "APPROXIMATE",
            "viewport" : {
               "northeast" : {
                  "lat" : -19.7760434,
                  "lng" : -43.8573101
               },
               "southwest" : {
                  "lat" : -20.0596992,
                  "lng" : -44.0633132
               }
            }
         },
         "place_id" : "ChIJiUIyZaGQpgARff0Fu8gdHXA",
         "radius" : 40;
         "types" : [ "administrative_area_level_2", "political" ]
      }
   ],
   "status" : "OK"
}